City,Lat,Lng,Max Temp,Humidity,Cloudiness,Wind Speed,Country,Date,Hemisphere
faanui,-16.48,-151.75,80.08,72,4,11.39,PF,1607898555,Southern
erzin,36.96,36.2,59.0,65,100,5.01,TR,1607898555,Northern
montrose,38.42,-108.27,25.0,57,31,3.0,US,1607898556,Northern
thompson,55.74,-97.86,-14.8,75,20,5.82,CA,1607898556,Northern
bahia blanca,-38.72,-62.27,73.81,21,6,7.78,AR,1607898552,Southern
cape town,-33.93,18.42,63.0,82,0,3.36,ZA,1607898262,Southern
hermanus,-34.42,19.23,57.99,91,23,7.67,ZA,1607898556,Southern
mindelo,16.89,-24.98,73.4,64,20,18.34,CV,1607898556,Northern
lorengau,-2.02,147.27,83.75,79,79,11.83,PG,1607898556,Southern
butaritari,3.07,172.79,82.08,76,5,17.94,KI,1607898557,Northern
batagay-alyta,67.8,130.41,-34.04,67,0,1.83,RU,1607898557,Northern
porto santo,33.07,-16.34,62.6,88,40,6.93,PT,1607898557,Northern
port elizabeth,-33.92,25.57,66.2,93,0,2.24,ZA,1607898557,Southern
beringovskiy,63.05,179.32,28.9,98,100,24.02,RU,1607898557,Northern
ingham,42.6,-84.38,35.6,74,90,3.36,US,1607898557,Northern
lugoba,-6.45,38.33,71.87,96,68,2.35,TZ,1607898558,Southern
bethel,41.37,-73.41,51.8,53,1,5.82,US,1607898558,Northern
saint anthony,45.02,-93.22,26.01,79,90,5.82,US,1607898558,Northern
matara,5.95,80.54,74.21,89,98,4.68,LK,1607898405,Northern
atuona,-9.8,-139.03,79.47,70,1,14.45,PF,1607898558,Southern
rikitea,-23.12,-134.97,76.26,70,38,6.24,PF,1607898558,Southern
kushima,31.46,131.23,50.0,66,75,12.75,JP,1607898558,Northern
kapaa,22.08,-159.32,82.4,65,1,6.93,US,1607898558,Northern
roebourne,-20.78,117.13,75.88,75,4,8.79,AU,1607898559,Southern
wad madani,14.4,33.52,74.37,25,28,9.08,SD,1607898559,Northern
rawson,-43.3,-65.1,70.14,24,80,16.75,AR,1607898559,Southern
mataura,-46.19,168.86,55.99,73,91,11.01,NZ,1607898559,Southern
kruisfontein,-34.0,24.73,64.99,94,9,1.01,ZA,1607898559,Southern
castro,-24.79,-50.01,69.04,89,52,5.01,BR,1607898560,Southern
palaia fokaia,37.72,23.95,59.0,87,75,5.82,GR,1607898560,Northern
catalina,32.51,-110.92,60.01,17,17,2.04,US,1607898560,Northern
barrow,71.29,-156.79,-4.0,64,1,24.16,US,1607898560,Northern
oloron-sainte-marie,43.19,-0.61,46.4,100,87,1.12,FR,1607898560,Northern
sao filipe,14.9,-24.5,75.27,74,24,4.27,CV,1607898560,Northern
san quintin,30.48,-115.95,64.99,55,0,6.08,MX,1607898560,Northern
vao,-22.67,167.48,77.04,80,86,24.38,NC,1607898561,Southern
fort nelson,58.81,-122.7,-14.8,75,75,2.24,CA,1607898561,Northern
tuktoyaktuk,69.45,-133.04,-4.0,76,90,13.87,CA,1607898561,Northern
vaini,-21.2,-175.2,84.2,79,20,14.99,TO,1607898561,Southern
xichang,27.9,102.26,48.0,52,52,1.32,CN,1607898298,Northern
vikhorevka,56.12,101.16,0.0,84,100,4.47,RU,1607898561,Northern
arraial do cabo,-22.97,-42.03,78.8,83,75,9.17,BR,1607898516,Southern
norman wells,65.28,-126.83,-36.4,65,20,4.7,CA,1607898562,Northern
clyde river,70.47,-68.59,-2.2,70,90,6.93,CA,1607898562,Northern
jamestown,42.1,-79.24,34.0,93,90,9.17,US,1607898562,Northern
lavrentiya,65.58,-171.0,15.62,84,100,35.25,RU,1607898562,Northern
ust-nera,64.57,143.2,-27.35,72,91,2.53,RU,1607898562,Northern
busselton,-33.65,115.33,52.0,98,21,1.01,AU,1607898562,Southern
avarua,-21.21,-159.78,82.4,78,52,6.93,CK,1607898563,Southern
puerto ayora,-0.74,-90.35,80.6,65,0,14.99,EC,1607898296,Southern
provideniya,64.38,-173.3,19.4,85,90,26.84,RU,1607898563,Northern
esfarayen,37.08,57.51,15.8,85,0,2.64,IR,1607898563,Northern
lerum,57.77,12.27,39.0,93,90,6.93,SE,1607898563,Northern
hobart,-42.88,147.33,73.0,46,20,14.99,AU,1607898417,Southern
sobolevo,54.43,31.9,29.77,99,100,8.23,RU,1607898563,Northern
kazachinskoye,57.7,93.28,7.81,94,100,6.8,RU,1607898564,Northern
mount gambier,-37.83,140.77,80.6,30,75,20.8,AU,1607898564,Southern
srednekolymsk,67.45,153.68,-22.74,87,100,7.54,RU,1607898564,Northern
tutoia,-2.76,-42.27,81.54,79,32,9.51,BR,1607898564,Southern
manokwari,-0.87,134.08,80.33,74,100,4.34,ID,1607898564,Southern
yerbogachen,61.28,108.01,-23.3,85,96,9.01,RU,1607898564,Northern
sombrerete,23.63,-103.65,66.45,22,61,6.62,MX,1607898565,Northern
samarai,-10.62,150.67,82.26,74,100,9.22,PG,1607898565,Southern
marrakesh,31.63,-8.01,59.0,87,75,5.82,MA,1607898446,Northern
chuy,-33.7,-53.46,69.31,70,100,13.29,UY,1607898565,Southern
waharoa,-37.77,175.77,71.01,68,11,5.01,NZ,1607898565,Southern
vetluzhskiy,58.39,45.47,11.16,96,61,6.46,RU,1607898565,Northern
yarada,17.65,83.27,66.2,93,1,2.24,IN,1607898566,Northern
port arthur,38.8,121.27,21.2,44,75,6.71,CN,1607898566,Northern
olafsvik,64.89,-23.71,38.5,78,99,23.85,IS,1607898566,Northern
yellowknife,62.46,-114.35,-25.01,67,20,6.93,CA,1607898566,Northern
tuatapere,-46.13,167.68,55.99,73,49,11.01,NZ,1607898566,Southern
lagoa,39.05,-27.98,57.65,64,32,25.95,PT,1607898566,Northern
chiang khong,20.26,100.4,59.0,100,0,2.24,TH,1607898567,Northern
albany,42.6,-73.97,42.01,65,100,9.31,US,1607898567,Northern
itoman,26.12,127.67,66.2,72,40,8.05,JP,1607898567,Northern
uvalde,29.37,-99.77,68.0,12,1,25.28,US,1607898568,Northern
cherskiy,68.75,161.3,-18.99,88,100,4.12,RU,1607898568,Northern
torbay,47.67,-52.73,30.0,92,90,16.11,CA,1607898568,Northern
hilo,19.73,-155.09,80.6,69,90,9.17,US,1607898224,Northern
coquimbo,-29.95,-71.34,62.6,77,20,12.75,CL,1607898568,Southern
bluff,-46.6,168.33,55.99,73,100,11.01,NZ,1607898568,Southern
acajutla,13.59,-89.83,84.2,45,0,3.36,SV,1607898400,Northern
aklavik,68.22,-135.01,-31.0,66,2,4.7,CA,1607898568,Northern
hay river,60.82,-115.8,-16.6,75,21,2.24,CA,1607898569,Northern
port alfred,-33.59,26.89,66.0,96,25,1.99,ZA,1607898569,Southern
choachi,4.53,-73.92,62.6,63,40,13.87,CO,1607898569,Northern
punta arenas,-53.15,-70.92,50.0,61,40,20.8,CL,1607898569,Southern
dikson,73.51,80.55,-3.87,92,100,11.99,RU,1607898569,Northern
muros,42.78,-9.06,59.0,84,67,5.01,ES,1607898569,Northern
chokurdakh,70.63,147.92,-20.04,88,100,6.15,RU,1607898569,Northern
mafra,-26.11,-49.81,68.0,91,63,11.99,BR,1607898570,Southern
west bay,19.37,-81.42,82.4,78,20,10.29,KY,1607898570,Northern
kaitangata,-46.28,169.85,60.01,60,97,8.99,NZ,1607898570,Southern
fortuna,40.6,-124.16,54.0,86,99,3.0,US,1607898570,Northern
nikolskoye,59.7,30.79,25.0,92,90,2.39,RU,1607898570,Northern
ahmadnagar,19.08,74.73,70.0,59,95,4.7,IN,1607898570,Northern
dwarka,22.24,68.97,70.95,42,0,15.61,IN,1607898570,Northern
hamilton,39.18,-84.53,43.0,70,90,5.82,US,1607898541,Northern
tagusao,9.19,117.81,79.66,77,86,4.74,PH,1607898571,Northern
bredasdorp,-34.53,20.04,59.0,82,68,2.24,ZA,1607898571,Southern
kodiak,57.79,-152.41,42.8,93,90,18.34,US,1607898571,Northern
souillac,-20.52,57.52,75.2,88,75,14.99,MU,1607898571,Southern
karratha,-20.74,116.85,75.63,69,17,8.43,AU,1607898571,Southern
puro,12.48,123.38,79.34,86,92,10.45,PH,1607898571,Northern
hervey bay,-25.3,152.85,73.0,94,81,3.0,AU,1607898572,Southern
kavaratti,10.57,72.64,81.52,68,2,3.18,IN,1607898572,Northern
warmbad,-28.45,18.73,68.85,28,0,9.19,NA,1607898572,Southern
dingle,11.0,122.67,75.38,91,73,6.31,PH,1607898572,Northern
zhaodong,46.08,125.98,-20.2,82,0,2.24,CN,1607898572,Northern
ushuaia,-54.8,-68.3,48.2,45,40,17.22,AR,1607898545,Southern
thunder bay,48.4,-89.32,18.0,78,90,13.87,CA,1607898573,Northern
fonte boa,-2.5,-66.27,77.95,93,100,0.56,BR,1607898573,Southern
sopron,47.69,16.59,39.0,93,80,1.99,HU,1607898573,Northern
hornepayne,49.21,-84.77,10.45,89,78,3.29,CA,1607898573,Northern
upernavik,72.79,-56.15,24.71,98,100,1.92,GL,1607898573,Northern
hovd,48.01,91.64,-3.21,81,68,0.94,MN,1607898573,Northern
raudeberg,61.99,5.14,44.6,65,94,13.87,NO,1607898574,Northern
ancud,-41.87,-73.82,53.01,81,90,14.99,CL,1607898574,Southern
qaanaaq,77.48,-69.36,25.68,93,100,5.5,GL,1607898574,Northern
hofn,64.25,-15.21,40.73,85,100,29.82,IS,1607898574,Northern
ribeira grande,38.52,-28.7,59.0,58,40,20.8,PT,1607898574,Northern
hohhot,40.81,111.65,-11.2,63,0,4.47,CN,1607898330,Northern
lafia,8.48,8.52,82.36,42,98,1.81,NG,1607898575,Northern
tamandare,-8.76,-35.1,78.46,76,56,9.57,BR,1607898518,Southern
coahuayana,18.73,-103.68,80.6,65,20,11.41,MX,1607898575,Northern
iquique,-20.22,-70.14,69.8,64,20,14.99,CL,1607898351,Southern
narsaq,60.92,-46.05,26.6,86,75,2.24,GL,1607898575,Northern
portsmouth,50.8,-1.09,54.0,95,98,1.01,GB,1607898575,Northern
bambous virieux,-20.34,57.76,75.2,88,75,14.99,MU,1607898576,Southern
lincoln,40.8,-96.67,26.6,73,40,4.7,US,1607898519,Northern
east london,-33.02,27.91,70.52,82,55,12.41,ZA,1607898576,Southern
sampit,-2.53,112.95,73.2,95,100,0.31,ID,1607898576,Southern
ostrovnoy,68.05,39.51,23.52,97,95,7.38,RU,1607898576,Northern
bonavista,48.65,-53.11,28.0,100,100,3.36,CA,1607898576,Northern
sao miguel do araguaia,-13.28,-50.16,81.57,65,59,3.76,BR,1607898576,Southern
meulaboh,4.14,96.13,77.02,84,100,3.18,ID,1607898577,Northern
constitucion,-35.33,-72.42,66.15,44,2,20.31,CL,1607898577,Southern
cabo san lucas,22.89,-109.91,78.8,60,5,9.17,MX,1607898577,Northern
talara,-4.58,-81.27,70.3,78,9,18.12,PE,1607898577,Southern
san patricio,28.02,-97.52,77.0,61,75,26.4,US,1607898577,Northern
beloha,-25.17,45.05,74.21,62,0,12.39,MG,1607898577,Southern
biak,-0.91,122.88,77.52,76,96,1.92,ID,1607898577,Southern
kawalu,-7.38,108.21,71.51,92,99,1.1,ID,1607898578,Southern
bengkulu,-3.8,102.27,74.57,85,100,2.15,ID,1607898578,Southern
georgetown,5.41,100.34,78.8,94,20,2.24,MY,1607898562,Northern
carnarvon,-24.87,113.63,66.2,63,1,17.22,AU,1607898578,Southern
padang,-0.95,100.35,77.14,68,100,3.51,ID,1607898346,Southern
port hardy,50.7,-127.42,44.6,81,75,16.11,CA,1607898578,Northern
rio grande,-32.03,-52.1,77.0,73,75,9.17,BR,1607898381,Southern
taltal,-25.4,-70.48,67.96,52,22,5.23,CL,1607898579,Southern
hasaki,35.73,140.83,41.0,86,75,5.82,JP,1607898579,Northern
kambove,-10.88,26.6,60.39,100,99,2.8,CD,1607898579,Southern
dolinsk,47.35,142.8,-2.2,84,75,2.24,RU,1607898579,Northern
geraldton,-28.77,114.6,57.2,76,40,5.82,AU,1607898579,Southern
cidreira,-30.18,-50.21,71.04,93,80,1.81,BR,1607898580,Southern
qaqortoq,60.72,-46.03,26.6,86,75,2.24,GL,1607898465,Northern
poum,-20.23,164.02,81.37,80,47,25.5,NC,1607898580,Southern
la ronge,55.1,-105.28,-5.8,70,0,4.7,CA,1607898580,Northern
petrozavodsk,61.78,34.35,21.2,100,98,4.52,RU,1607898425,Northern
kamenka,51.32,42.77,16.57,94,88,12.33,RU,1607898580,Northern
mattru,7.62,-11.83,74.84,96,0,2.68,SL,1607898580,Northern
hobyo,5.35,48.53,78.26,76,25,19.53,SO,1607898580,Northern
kurmanayevka,52.51,52.07,9.75,93,100,3.71,RU,1607898581,Northern
galle,6.04,80.22,75.7,87,92,2.19,LK,1607898581,Northern
khatanga,71.97,102.5,-5.08,92,100,8.81,RU,1607898581,Northern
katsuura,35.13,140.3,57.2,54,75,23.04,JP,1607898581,Northern
surab,28.49,66.26,33.84,83,0,9.15,PK,1607898581,Northern
lastoursville,-0.81,12.73,74.1,92,100,2.66,GA,1607898581,Southern
susanville,40.42,-120.65,41.0,80,75,6.93,US,1607898582,Northern
longyearbyen,78.22,15.64,19.4,67,75,2.24,SJ,1607898582,Northern
baoying,33.23,119.31,28.26,81,96,11.68,CN,1607898582,Northern
hithadhoo,-0.6,73.08,82.33,77,59,16.11,MV,1607898582,Southern
boke,10.94,-14.3,75.36,79,11,3.98,GN,1607898583,Northern
chara,56.91,118.26,-34.8,70,8,0.45,RU,1607898583,Northern
ravar,31.27,56.81,39.33,68,0,1.7,IR,1607898583,Northern
tasiilaq,65.61,-37.64,37.4,64,100,15.86,GL,1607898583,Northern
new richmond,45.12,-92.54,23.0,79,90,6.93,US,1607898583,Northern
leninskoye,41.76,69.39,32.0,85,90,4.7,KZ,1607898583,Northern
manzhouli,49.6,117.43,-13.86,85,0,8.01,CN,1607898584,Northern
pacifica,37.61,-122.49,57.99,93,90,8.05,US,1607898584,Northern
flinders,-34.58,150.86,72.0,82,78,1.01,AU,1607898584,Southern
isangel,-19.55,169.27,86.0,74,75,11.41,VU,1607898584,Southern
east hemet,33.74,-116.94,66.99,18,69,3.58,US,1607898584,Northern
luderitz,-26.65,15.16,59.0,87,0,14.99,NA,1607898584,Southern
cap malheureux,-19.98,57.61,73.99,84,20,1.99,MU,1607898584,Southern
grand gaube,-20.01,57.66,73.99,84,23,1.99,MU,1607898585,Southern
talnakh,69.49,88.4,-13.0,83,98,4.47,RU,1607898585,Northern
esperance,-33.87,121.9,62.6,63,40,17.22,AU,1607898585,Southern
mildura,-34.2,142.15,84.99,23,6,17.22,AU,1607898585,Southern
nongan,44.38,125.17,-2.2,58,0,6.71,CN,1607898585,Northern
husavik,66.04,-17.34,41.0,82,90,9.17,IS,1607898585,Northern
yulara,-25.24,130.99,84.2,58,89,6.93,AU,1607898585,Southern
kaminskiy,57.15,41.47,13.71,95,100,7.99,RU,1607898586,Northern
punta de bombon,-17.17,-71.79,69.98,74,99,5.48,PE,1607898586,Southern
khani,41.96,42.96,51.8,43,0,21.92,GE,1607898586,Northern
kahului,20.89,-156.47,84.2,54,40,6.93,US,1607898586,Northern
ilulissat,69.22,-51.1,24.8,73,100,8.05,GL,1607898586,Northern
vanimo,-2.67,141.3,80.94,81,99,4.38,PG,1607898586,Southern
aswan,24.09,32.91,69.04,31,27,7.11,EG,1607898586,Northern
severo-kurilsk,50.68,156.12,35.78,92,100,44.83,RU,1607898587,Northern
marzuq,14.4,46.47,50.02,48,0,2.68,YE,1607898587,Northern
nantucket,41.28,-70.1,52.0,93,20,8.05,US,1607898587,Northern
morrope,-6.54,-80.01,75.0,68,0,24.16,PE,1607898587,Southern
ponta do sol,32.67,-17.1,62.6,82,20,1.12,PT,1607898587,Northern
lata,40.16,-8.33,59.0,91,100,1.01,PT,1607898587,Northern
pangkalanbuun,-2.68,111.62,74.26,89,100,1.61,ID,1607898588,Southern
port lincoln,-34.73,135.87,75.18,61,1,13.47,AU,1607898588,Southern
burley,42.54,-113.79,33.8,50,90,21.92,US,1607898588,Northern
santa fe,-31.63,-60.7,73.99,52,38,5.39,AR,1607898588,Southern
margate,51.38,1.39,53.01,92,100,8.01,GB,1607898588,Northern
komsomolskiy,40.43,71.72,30.2,80,90,2.24,UZ,1607898588,Northern
hoi an,15.88,108.33,75.2,100,75,3.91,VN,1607898588,Northern
barcelona,41.39,2.16,53.01,81,20,6.93,ES,1607898512,Northern
sao jose da coroa grande,-8.9,-35.15,78.75,75,62,10.42,BR,1607898589,Southern
sibolga,1.74,98.78,75.36,78,100,4.45,ID,1607898589,Northern
alofi,-19.06,-169.92,73.4,94,90,10.29,NU,1607898589,Southern
labuan,5.28,115.24,77.0,94,20,8.05,MY,1607898589,Northern
daru,-9.08,143.21,82.04,77,100,3.09,PG,1607898589,Southern
casma,-41.01,-73.12,59.0,54,56,13.87,CL,1607898590,Southern
la rioja,42.25,-2.5,48.0,93,0,4.88,ES,1607898590,Northern
pangody,65.85,74.49,12.96,97,100,5.39,RU,1607898590,Northern
goderich,43.75,-81.72,32.0,88,100,6.93,CA,1607898590,Northern
kondinskoye,59.65,67.41,17.04,94,100,10.83,RU,1607898590,Northern
xam nua,20.42,104.04,55.08,86,4,2.13,LA,1607898591,Northern
codrington,-38.27,141.97,76.17,44,10,12.82,AU,1607898591,Southern
airai,-8.93,125.41,63.28,100,100,0.74,TL,1607898591,Southern
lebu,-37.62,-73.65,56.23,71,15,16.55,CL,1607898591,Southern
russell,32.35,-85.2,66.2,82,75,2.93,US,1607898591,Northern
hami,42.8,93.45,10.69,72,0,2.98,CN,1607898592,Northern
tanggu,39.02,117.65,17.6,34,0,2.24,CN,1607898592,Northern
saint-francois,46.42,3.91,42.01,93,0,3.36,FR,1607898592,Northern
yatou,37.15,122.38,23.74,92,67,13.06,CN,1607898592,Northern
veshenskaya,49.63,41.73,25.52,96,100,13.91,RU,1607898592,Northern
carutapera,-1.2,-46.02,78.87,81,76,5.3,BR,1607898592,Southern
hammerfest,70.66,23.68,30.2,80,75,20.8,NO,1607898366,Northern
puerto carreno,6.19,-67.49,84.02,70,100,6.73,CO,1607898593,Northern
waddan,29.16,16.14,54.3,45,0,14.07,LY,1607898593,Northern
tiksi,71.69,128.87,-28.98,83,26,3.74,RU,1607898593,Northern
las cruces,32.31,-106.78,48.0,24,1,3.36,US,1607898593,Northern
mount isa,-20.73,139.5,82.4,58,100,13.87,AU,1607898593,Southern
kachiry,53.07,76.1,7.75,96,80,7.18,KZ,1607898594,Northern
bahia honda,22.9,-83.16,78.24,73,0,7.05,CU,1607898594,Northern
rock sound,24.9,-76.2,77.65,82,19,7.99,BS,1607898594,Northern
kenora,49.82,-94.43,17.6,85,90,10.29,CA,1607898594,Northern
nanortalik,60.14,-45.24,30.97,96,100,13.04,GL,1607898594,Northern
los llanos de aridane,28.66,-17.92,64.4,88,20,7.92,ES,1607898594,Northern
waipawa,-41.41,175.52,60.01,72,82,12.75,NZ,1607898594,Southern
caravelas,-17.71,-39.25,74.79,80,1,6.24,BR,1607898595,Southern
mehran,33.12,46.16,42.8,70,0,6.93,IR,1607898595,Northern
adre,13.47,22.2,71.31,20,100,5.59,TD,1607898595,Northern
victoria,22.29,114.16,69.01,81,84,13.89,HK,1607898563,Northern
papar,5.73,115.93,75.2,100,20,2.24,MY,1607898579,Northern
leningradskiy,69.38,178.42,15.39,90,100,18.37,RU,1607898595,Northern
ler,8.3,30.14,80.71,25,0,2.82,SS,1607898596,Northern
buala,-8.14,159.59,84.56,68,94,2.08,SB,1607898596,Southern
oktyabrskiy,54.48,53.47,6.42,92,86,4.18,RU,1607898596,Northern
vestmanna,62.16,-7.17,46.4,75,100,31.09,FO,1607898596,Northern
xining,36.62,101.77,10.22,89,92,3.69,CN,1607898596,Northern
tabora,-5.02,32.8,64.04,96,100,4.03,TZ,1607898597,Southern
ahipara,-35.17,173.17,67.66,56,54,4.0,NZ,1607898597,Southern
conde,-7.26,-34.91,77.0,94,75,9.17,BR,1607898597,Southern
makakilo city,21.35,-158.09,82.4,65,1,8.05,US,1607898597,Northern
portland,45.52,-122.68,43.0,75,90,4.7,US,1607898124,Northern
dinghai,26.28,119.79,51.8,93,90,22.37,CN,1607898597,Northern
mahebourg,-20.41,57.7,75.2,88,75,14.99,MU,1607898597,Southern
anloga,5.79,0.9,82.4,83,20,8.05,GH,1607898598,Northern
barmer,25.75,71.38,54.95,41,0,9.1,IN,1607898557,Northern
requena,39.49,-1.1,44.01,88,100,4.25,ES,1607898598,Northern
new norfolk,-42.78,147.06,73.0,49,0,3.0,AU,1607898598,Southern
kibre mengist,5.88,38.98,53.4,70,31,2.59,ET,1607898598,Northern
tura,25.52,90.22,59.49,70,98,3.09,IN,1607898599,Northern
povenets,62.85,34.83,22.95,97,94,5.97,RU,1607898599,Northern
sitka,57.05,-135.33,44.6,45,75,21.92,US,1607898494,Northern
basco,20.45,121.97,76.32,84,53,18.7,PH,1607898599,Northern
methoni,36.82,21.7,55.0,85,100,4.7,GR,1607898599,Northern
tilichiki,60.47,166.1,2.75,96,91,8.48,RU,1607898599,Northern
sharjah,25.36,55.4,69.8,68,0,3.36,AE,1607898539,Northern
namibe,-15.2,12.15,66.02,81,40,3.69,AO,1607898600,Southern
gobabis,-22.45,18.97,77.0,25,0,2.24,NA,1607898600,Southern
kibaya,-5.3,36.57,60.75,100,14,3.8,TZ,1607898600,Southern
bilibino,68.05,166.44,-2.6,86,100,4.7,RU,1607898600,Northern
georgiyevskoye,58.73,45.02,12.02,96,73,6.73,RU,1607898600,Northern
zhicheng,30.3,111.5,35.01,54,97,8.37,CN,1607898600,Northern
san jose de miranda,6.66,-72.73,66.02,64,72,1.63,CO,1607898600,Northern
heinola,61.21,26.04,26.01,92,90,3.36,FI,1607898601,Northern
sunrise manor,36.21,-115.07,48.2,21,75,12.75,US,1607898601,Northern
lompoc,34.64,-120.46,63.0,72,75,5.82,US,1607898601,Northern
ormara,25.21,64.64,70.2,34,0,11.81,PK,1607898602,Northern
saint-augustin,51.23,-58.65,19.71,94,100,18.41,CA,1607898602,Northern
monrovia,6.3,-10.8,78.8,94,20,5.14,LR,1607898396,Northern
phan thiet,10.93,108.1,74.5,85,100,2.91,VN,1607898602,Northern
bundaberg,-24.85,152.35,73.0,94,90,10.29,AU,1607898602,Southern
saldanha,-33.01,17.94,57.2,76,71,2.24,ZA,1607898603,Southern
salalah,17.02,54.09,71.6,30,0,8.05,OM,1607898603,Northern
sheffield,53.38,-1.47,48.0,96,51,14.94,GB,1607898492,Northern
ayr,55.46,-4.63,51.8,87,75,12.75,GB,1607898603,Northern
noumea,-22.28,166.46,82.4,74,90,6.93,NC,1607898603,Southern
marang,5.21,103.21,77.0,88,20,2.24,MY,1607898603,Northern
saskylakh,71.92,114.08,-23.17,83,100,17.6,RU,1607898604,Northern
college,64.86,-147.8,6.8,77,75,8.05,US,1607898604,Northern
vila velha,-20.33,-40.29,77.0,78,0,11.41,BR,1607898360,Southern
terrace bay,48.78,-87.1,17.6,92,90,4.7,CA,1607898605,Northern
krasnoselkup,65.7,82.47,7.25,95,100,11.05,RU,1607898607,Northern
cholet,47.17,-1.0,50.0,92,100,16.2,FR,1607898608,Northern
khandyga,62.67,135.6,-54.27,71,55,0.81,RU,1607898609,Northern
lima,-12.04,-77.03,69.8,77,40,19.46,PE,1607898458,Southern
chengde,40.97,117.94,2.79,78,0,3.6,CN,1607898610,Northern
faya,18.39,42.45,55.4,40,0,1.68,SA,1607898610,Northern
laibin,23.7,109.27,50.61,77,100,14.36,CN,1607898610,Northern
lerwick,60.15,-1.15,45.27,83,100,38.56,GB,1607898610,Northern
sulangan,11.14,123.72,81.97,80,31,10.49,PH,1607898611,Northern
milkovo,54.72,158.62,10.0,93,100,10.71,RU,1607898611,Northern
iralaya,15.0,-83.23,78.58,85,26,9.33,HN,1607898611,Northern
jintur,19.62,76.7,68.07,63,85,5.77,IN,1607898611,Northern
rio gallegos,-51.62,-69.22,53.6,40,40,4.7,AR,1607898611,Southern
kendari,-3.94,122.5,77.88,89,100,3.47,ID,1607898612,Southern
dunedin,-45.87,170.5,57.99,66,91,18.01,NZ,1607898442,Southern
kloulklubed,7.04,134.26,80.6,83,75,5.82,PW,1607898612,Northern
outlook,51.5,-107.05,-4.0,69,0,3.36,CA,1607898612,Northern
borogontsy,62.67,131.17,-49.67,76,71,1.88,RU,1607898613,Northern
yuzhno-kurilsk,44.03,145.86,24.78,93,100,13.11,RU,1607898613,Northern
wajir,1.75,40.06,79.16,43,48,10.4,KE,1607898613,Northern
kupang,-10.17,123.58,77.0,100,75,4.7,ID,1607898390,Southern
portoferraio,42.81,10.31,44.01,93,0,6.93,IT,1607898613,Northern
juli,-16.22,-69.45,52.29,65,69,10.78,PE,1607898613,Southern
plettenberg bay,-34.05,23.37,65.82,86,0,8.34,ZA,1607898614,Southern
wagar,16.15,36.2,65.89,85,0,9.15,SD,1607898614,Northern
beira,-19.84,34.84,80.6,88,40,8.05,MZ,1607898341,Southern
jamalpur,24.92,89.93,64.96,67,63,4.81,BD,1607898614,Northern
muisne,0.6,-80.03,80.6,83,75,12.75,EC,1607898614,Northern
yurgamysh,55.37,64.47,10.44,94,9,11.61,RU,1607898615,Northern
cherdyn,60.4,56.48,7.63,96,82,5.41,RU,1607898615,Northern
te anau,-45.42,167.72,60.96,50,15,2.13,NZ,1607898615,Southern
lesosibirsk,58.24,92.48,5.74,94,100,7.07,RU,1607898615,Northern
nelson bay,-32.72,152.15,72.0,73,90,10.29,AU,1607898519,Southern
kedougou,12.56,-12.17,84.2,37,42,2.06,SN,1607898616,Northern
alta floresta,-9.88,-56.09,75.58,83,100,3.53,BR,1607898616,Southern
dongning,44.06,131.12,-1.17,81,4,8.99,CN,1607898616,Northern
saint-georges,12.06,-61.75,80.6,88,20,5.82,GD,1607898616,Northern
dalvik,65.97,-18.53,41.0,86,90,9.17,IS,1607898616,Northern
berberati,4.26,15.79,73.2,66,12,0.76,CF,1607898616,Northern
khorixas,-20.37,14.97,59.22,65,0,2.73,NA,1607898617,Southern
oak ridge,36.01,-84.27,55.4,66,1,1.63,US,1607898617,Northern
polson,47.69,-114.16,28.99,65,100,3.0,US,1607898617,Northern
richards bay,-28.78,32.04,72.37,89,62,6.15,ZA,1607898617,Southern
pevek,69.7,170.31,6.87,91,100,2.15,RU,1607898617,Northern
shimoda,34.67,138.95,46.99,62,35,5.01,JP,1607898618,Northern
klin,56.33,36.73,24.8,79,90,8.95,RU,1607898605,Northern
oga,46.46,10.35,35.01,92,20,1.12,IT,1607898618,Northern
ulaangom,49.98,92.07,-12.44,84,77,2.13,MN,1607898618,Northern
porto novo,6.5,2.6,82.4,88,20,10.29,BJ,1607898618,Northern
murray,40.67,-111.89,32.0,58,75,17.22,US,1607898615,Northern
mareeba,-17.0,145.43,80.6,69,90,2.33,AU,1607898618,Southern
vestmannaeyjar,63.44,-20.27,43.0,84,100,26.53,IS,1607898619,Northern
porto walter,-8.27,-72.74,76.05,92,86,2.84,BR,1607898619,Southern
charters towers,-20.1,146.27,79.47,58,99,3.83,AU,1607898619,Southern
nome,64.5,-165.41,15.8,56,1,13.87,US,1607898619,Northern
fethiye,36.62,29.12,60.8,87,75,29.97,TR,1607898619,Northern
bud,39.45,-86.18,39.2,80,90,3.36,US,1607898619,Northern
asau,46.43,26.4,34.0,96,62,3.27,RO,1607898620,Northern
ust-maya,60.42,134.53,-48.91,76,100,1.28,RU,1607898620,Northern
sandnessjoen,66.02,12.63,33.8,80,75,4.7,NO,1607898620,Northern
labuhan,-6.88,112.21,77.0,87,100,7.11,ID,1607898620,Southern
vardo,70.37,31.11,32.0,88,75,14.99,NO,1607898620,Northern
yanam,16.73,82.22,67.08,82,2,3.06,IN,1607898620,Northern
naze,28.37,129.48,66.2,72,75,6.93,JP,1607898621,Northern
broome,42.25,-75.83,39.99,69,20,9.17,US,1607898621,Northern
kokkola,63.84,23.13,27.0,92,75,10.29,FI,1607898621,Northern
aitape,-3.14,142.35,79.09,83,100,4.79,PG,1607898621,Southern
shingu,33.73,135.98,47.17,70,63,9.71,JP,1607898621,Northern
majene,-3.54,118.97,80.04,69,93,2.55,ID,1607898621,Southern
filadelfia,39.95,-75.16,53.01,53,75,11.41,US,1607898546,Northern
trofors,65.53,13.41,33.8,80,75,4.7,NO,1607898622,Northern
whitehorse,60.72,-135.05,8.6,71,75,2.24,CA,1607898606,Northern
bardiyah,31.76,25.09,58.82,72,0,28.19,LY,1607898622,Northern
damietta,31.42,31.81,64.4,77,0,12.75,EG,1607898348,Northern
puerto suarez,-18.95,-57.8,93.2,52,40,10.29,BO,1607898622,Southern
dutlwe,-23.98,23.9,76.68,51,49,12.03,BW,1607898623,Southern
taoudenni,22.68,-3.98,69.19,24,62,10.42,ML,1607898623,Northern
uvaly,50.07,14.73,41.0,93,90,3.36,CZ,1607898623,Northern
santa maria,-29.68,-53.81,73.62,87,73,4.92,BR,1607898623,Southern
khujner,23.78,76.6,60.39,89,20,5.21,IN,1607898623,Northern
cumpana,44.12,28.57,43.0,93,90,13.87,RO,1607898624,Northern
coos bay,43.37,-124.22,48.99,93,90,10.29,US,1607898444,Northern
youkounkoun,12.53,-13.13,77.29,23,59,1.99,GN,1607898624,Northern
shieli,44.17,66.75,21.79,78,0,11.9,KZ,1607898624,Northern
morondava,-20.28,44.28,79.63,81,96,6.08,MG,1607898624,Southern
marsh harbour,26.54,-77.06,75.42,76,16,5.1,BS,1607898624,Northern
cabedelo,-6.98,-34.83,77.0,94,75,9.17,BR,1607898624,Southern
warrnambool,-38.38,142.48,77.0,50,13,11.01,AU,1607898358,Southern
el tigre,8.89,-64.25,78.87,70,100,11.83,VE,1607898625,Northern
simoes,-7.6,-40.82,80.02,46,19,4.83,BR,1607898625,Southern
farmington,36.73,-108.22,30.0,46,1,4.7,US,1607898625,Northern
okha,53.57,142.95,11.26,96,82,13.96,RU,1607898625,Northern
khuchni,41.95,47.95,35.44,80,0,1.52,RU,1607898626,Northern
kulhudhuffushi,6.62,73.07,82.02,70,68,6.06,MV,1607898626,Northern
san miguel,13.48,-88.18,95.0,47,0,1.83,SV,1607898626,Northern
eyrarbakki,63.86,-21.15,46.4,49,75,16.11,IS,1607898626,Northern
emerald,-23.53,148.17,80.01,47,16,12.75,AU,1607898626,Southern
mbuyapey,-26.2,-56.75,69.96,95,82,3.09,PY,1607898626,Southern
altukhovo,52.67,34.36,30.34,97,100,8.93,RU,1607898626,Northern
oranjemund,-28.55,16.43,61.32,85,0,9.57,NA,1607898627,Southern
mountain home,43.13,-115.69,30.2,100,90,14.99,US,1607898600,Northern
namatanai,-3.67,152.43,84.33,73,73,5.28,PG,1607898627,Southern
baykit,61.67,96.37,-7.13,87,100,1.95,RU,1607898627,Northern
sandy bay,-42.91,147.35,73.0,46,20,14.99,AU,1607898627,Southern
moctezuma,29.8,-109.67,66.18,26,0,7.16,MX,1607898627,Northern
madang,-5.22,145.8,78.94,82,99,5.95,PG,1607898628,Southern
tamarac,26.21,-80.25,79.0,61,1,10.29,US,1607898628,Northern
dicabisagan,17.08,122.42,77.5,83,92,3.24,PH,1607898628,Northern
maniitsoq,65.42,-52.9,17.28,90,100,4.72,GL,1607898628,Northern
ghanzi,-21.57,21.78,76.57,46,0,6.82,BW,1607898628,Southern
poya,-21.35,165.15,80.17,78,100,7.7,NC,1607898628,Southern
nishihara,26.18,127.76,66.2,72,40,8.05,JP,1607898628,Northern
laguna,38.42,-121.42,54.0,87,90,10.29,US,1607898629,Northern
pirai do sul,-24.53,-49.95,68.0,99,41,1.99,BR,1607898629,Southern
sola,-13.88,167.55,78.8,100,75,13.24,VU,1607898629,Southern
chegdomyn,51.12,133.02,-20.51,85,66,1.28,RU,1607898629,Northern
rocha,-34.48,-54.33,64.96,66,100,9.19,UY,1607898629,Southern
vila,42.03,-8.16,53.01,95,100,10.0,PT,1607898472,Northern
chapais,49.78,-74.85,17.6,85,90,8.05,CA,1607898630,Northern
kailua,21.4,-157.74,82.99,74,20,6.93,US,1607898630,Northern
robertson,36.52,-86.87,48.99,75,75,5.82,US,1607898630,Northern
surt,31.21,16.59,60.98,67,72,29.08,LY,1607898630,Northern
qidong,31.81,121.66,37.99,85,99,1.99,CN,1607898630,Northern
awjilah,29.11,21.29,56.84,52,0,17.54,LY,1607898630,Northern
ngaoundere,7.32,13.58,67.78,30,0,2.62,CM,1607898631,Northern
strezhevoy,60.73,77.59,8.6,92,0,11.18,RU,1607898631,Northern
cayenne,4.93,-52.33,80.6,83,0,2.24,GF,1607898607,Northern
tazovskiy,67.47,78.7,-11.15,88,100,7.2,RU,1607898631,Northern
belmonte,-15.86,-38.88,77.0,73,0,8.05,BR,1607898631,Southern
udachnyy,66.42,112.4,-23.8,74,0,6.71,RU,1607898631,Northern
havre-saint-pierre,50.23,-63.6,14.0,61,90,18.34,CA,1607898631,Northern
acapulco,16.86,-99.89,86.0,70,20,3.36,MX,1607898632,Northern
flin flon,54.77,-101.86,-7.6,76,40,4.7,CA,1607898632,Northern
zhigansk,66.77,123.37,-42.99,78,62,14.74,RU,1607898632,Northern
miraflores,19.22,-98.81,77.0,16,20,4.7,MX,1607898632,Northern
tessalit,20.2,1.01,66.13,27,0,8.81,ML,1607898632,Northern
thibodaux,29.8,-90.82,73.0,86,66,8.01,US,1607898528,Northern
bassar,9.25,0.78,78.8,69,0,2.08,TG,1607898633,Northern
sheltozero,61.37,35.37,21.96,96,98,6.29,RU,1607898633,Northern
guerrero negro,27.98,-114.06,71.33,21,0,19.04,MX,1607898633,Northern
ojinaga,29.57,-104.42,60.8,11,1,18.34,MX,1607898633,Northern
berdigestyakh,62.1,126.7,-42.54,80,50,4.09,RU,1607898633,Northern
penapolis,-21.42,-50.08,80.2,58,37,0.6,BR,1607898633,Southern
mar del plata,-38.0,-57.56,66.2,37,0,6.93,AR,1607898634,Southern
ucluelet,48.93,-125.55,45.0,100,90,5.82,CA,1607898471,Northern
lakes entrance,-37.88,147.98,79.0,53,5,1.01,AU,1607898634,Southern
bacabal,-4.29,-44.79,77.86,85,91,6.04,BR,1607898634,Southern
naryan-mar,67.67,53.09,29.7,98,100,15.66,RU,1607898634,Northern
sao joao da barra,-21.64,-41.05,80.6,74,0,23.04,BR,1607898356,Southern
gamba,-2.65,10.0,77.29,86,100,4.68,GA,1607898634,Southern
maceio,-9.67,-35.74,78.8,78,75,8.05,BR,1607898392,Southern
valdosta,30.83,-83.28,73.4,64,20,4.7,US,1607898363,Northern
clarence town,-32.58,151.78,72.0,73,90,10.29,AU,1607898635,Southern
mvuma,-19.28,30.53,64.83,87,100,5.55,ZW,1607898635,Southern
pinega,64.7,43.39,15.76,97,97,5.7,RU,1607898635,Northern
apeldoorn,52.21,5.97,43.0,87,90,13.87,NL,1607898635,Northern
iqaluit,63.75,-68.51,10.4,66,40,17.22,CA,1607898612,Northern
cockburn town,21.46,-71.14,80.6,74,40,9.17,TC,1607898635,Northern
young,-32.68,-57.63,69.01,75,82,4.0,UY,1607898636,Southern
khuzhir,53.19,107.34,6.44,85,10,6.38,RU,1607898636,Northern
los patios,7.84,-72.5,84.2,62,20,9.17,CO,1607898365,Northern
sumenep,-7.02,113.87,77.32,83,100,9.51,ID,1607898636,Southern
las margaritas,16.32,-91.98,67.68,69,0,2.08,MX,1607898636,Northern
kandrian,-6.22,149.55,79.23,83,100,7.72,PG,1607898637,Southern
bosaso,11.28,49.18,73.56,54,0,4.43,SO,1607898637,Northern
kavieng,-2.57,150.8,84.88,73,33,10.36,PG,1607898637,Southern
santa cruz,-17.8,-63.17,82.4,69,40,16.11,BO,1607898430,Southern
shibetsu,43.66,145.13,24.24,88,100,8.41,JP,1607898637,Northern
barentu,15.11,37.59,59.0,84,0,3.09,ER,1607898637,Northern
brae,60.4,-1.35,45.55,82,100,33.11,GB,1607898638,Northern
kargasok,59.06,80.86,7.54,95,100,6.98,RU,1607898638,Northern
oistins,13.07,-59.53,80.6,78,40,9.17,BB,1607898390,Northern
sakakah,29.97,40.21,55.4,37,0,11.41,SA,1607898638,Northern
la palma,33.85,-118.05,71.6,15,75,5.82,US,1607898428,Northern
siocon,7.71,122.14,79.9,81,70,6.26,PH,1607898638,Northern
chippewa falls,44.94,-91.39,26.01,73,90,13.87,US,1607898638,Northern
yar-sale,66.83,70.83,12.52,96,100,3.06,RU,1607898639,Northern
gbadolite,4.28,21.02,74.01,69,37,4.25,CD,1607898639,Northern
klaksvik,62.23,-6.59,46.4,75,100,31.09,FO,1607898639,Northern
belaya gora,68.53,146.42,-23.33,86,100,3.4,RU,1607898639,Northern
nerchinskiy zavod,51.31,119.61,-26.79,81,0,2.24,RU,1607898639,Northern
erdenet,49.03,104.08,-9.24,82,2,2.77,MN,1607898459,Northern
ola,59.58,151.28,-8.82,86,95,15.39,RU,1607898639,Northern
karaj,35.84,51.01,35.6,92,40,1.23,IR,1607898549,Northern
sarangani,5.4,125.46,83.1,71,43,5.26,PH,1607898640,Northern
jieshi,22.81,115.83,68.0,82,91,15.79,CN,1607898640,Northern
bara,10.37,10.73,73.02,25,1,3.85,NG,1607898640,Northern
yangambi,0.81,24.43,70.39,98,99,2.39,CD,1607898640,Northern
rodrigues alves,-7.74,-72.65,87.8,62,40,3.36,BR,1607898640,Southern
pringsewu,-5.36,104.97,72.99,93,100,3.2,ID,1607898641,Southern
marawi,8.0,124.29,73.99,88,2,7.0,PH,1607898641,Northern
palmer,42.16,-72.33,51.01,61,75,11.41,US,1607898641,Northern
novyy urengoy,66.08,76.63,10.85,96,100,7.38,RU,1607898362,Northern
havelock,34.88,-76.9,66.2,88,40,4.21,US,1607898550,Northern
hailey,43.52,-114.32,23.0,85,90,2.57,US,1607898641,Northern
shahrud,36.42,54.98,28.51,77,5,2.57,IR,1607898641,Northern
lichinga,-13.31,35.24,64.26,86,97,4.32,MZ,1607898642,Southern
omboue,-1.57,9.26,77.0,89,100,7.99,GA,1607898642,Southern
saint-philippe,-21.36,55.77,73.4,88,75,11.41,RE,1607898642,Southern
bria,6.54,21.99,73.38,36,78,1.66,CF,1607898642,Northern
qui nhon,13.77,109.23,74.39,90,78,4.99,VN,1607898642,Northern
nuuk,64.18,-51.72,17.6,67,100,9.17,GL,1607898474,Northern
terrace,54.52,-128.6,32.0,84,90,17.22,CA,1607898525,Northern
batavia,41.85,-88.31,34.0,74,90,8.05,US,1607898643,Northern
bhatapara,21.73,81.93,67.14,54,63,2.17,IN,1607898643,Northern
san jeronimo,-11.95,-75.28,58.82,58,91,5.77,PE,1607898643,Southern
waitati,-45.75,170.57,57.99,66,81,18.01,NZ,1607898480,Southern
port blair,11.67,92.75,77.54,75,63,6.06,IN,1607898429,Northern
igarka,67.47,86.58,-6.18,91,100,9.04,RU,1607898643,Northern
bathurst,-33.42,149.58,62.01,74,55,5.01,AU,1607898595,Southern
imbituba,-28.24,-48.67,82.4,69,20,14.99,BR,1607898644,Southern
vila do maio,15.13,-23.22,73.4,73,20,10.29,CV,1607898644,Northern
tuburan,6.64,122.27,77.0,100,75,2.8,PH,1607898644,Northern
bagdarin,54.43,113.6,-21.32,77,0,2.77,RU,1607898644,Northern
amurzet,47.7,131.1,-5.01,74,0,12.41,RU,1607898644,Northern
kudat,6.88,116.85,75.2,94,20,4.5,MY,1607898573,Northern
wuwei,37.93,102.64,14.0,63,9,1.25,CN,1607898645,Northern
balboa,2.04,-77.22,62.22,100,100,2.44,CO,1607898645,Northern
takayama,36.13,137.25,39.2,93,75,9.17,JP,1607898645,Northern
paamiut,61.99,-49.67,22.39,93,100,41.54,GL,1607898645,Northern
zhezkazgan,47.8,67.71,7.47,79,34,0.87,KZ,1607898645,Northern
diego de almagro,-26.37,-70.05,73.4,21,0,6.46,CL,1607898645,Southern
mana,5.66,-53.78,78.53,86,0,8.9,GF,1607898646,Northern
adelaide,-34.93,138.6,87.01,35,0,12.75,AU,1607898646,Southern
vostok,46.49,135.88,-13.7,91,96,4.5,RU,1607898646,Northern
victoria point,-27.58,153.3,72.0,91,100,15.01,AU,1607898646,Southern
akyab,20.15,92.9,67.12,87,0,5.66,MM,1607898378,Northern
lemnia,46.05,26.27,42.01,96,63,0.72,RO,1607898646,Northern
avera,33.19,-82.53,66.2,93,90,3.36,US,1607898647,Northern
salinas,36.68,-121.66,59.0,93,90,9.17,US,1607898623,Northern
calabozo,8.92,-67.43,80.92,66,99,4.21,VE,1607898647,Northern
yankton,42.87,-97.4,33.8,55,90,11.41,US,1607898647,Northern
aykhal,66.0,111.5,-23.8,74,0,6.71,RU,1607898647,Northern
ouahigouya,13.58,-2.42,77.04,18,10,9.4,BF,1607898647,Northern
coihaique,-45.58,-72.07,51.8,57,90,10.29,CL,1607898647,Southern
chitungwiza,-18.01,31.08,63.0,93,94,8.01,ZW,1607898648,Southern
kerema,-7.96,145.78,83.35,69,90,2.42,PG,1607898648,Southern
gidole,5.65,37.37,58.21,52,31,2.46,ET,1607898648,Northern
syracuse,37.09,15.28,53.6,81,0,10.29,IT,1607898648,Northern
walvis bay,-22.96,14.51,63.0,77,8,4.7,NA,1607898648,Southern
saint george,37.1,-113.58,46.0,32,1,5.17,US,1607898648,Northern
baruun-urt,46.68,113.28,-15.02,83,0,7.63,MN,1607898648,Northern
honningsvag,70.98,25.97,30.2,80,75,3.36,NO,1607898649,Northern
high level,58.52,-117.14,-14.8,83,75,4.16,CA,1607898649,Northern
narsimhapur,22.95,79.2,64.26,72,61,4.07,IN,1607898649,Northern
kuala lipis,4.18,102.05,70.75,95,99,0.72,MY,1607898649,Northern
southbridge,42.08,-72.03,48.99,74,92,6.6,US,1607898649,Northern
san cristobal,7.77,-72.22,84.2,62,20,9.17,VE,1607898476,Northern
mayumba,-3.43,10.66,77.29,87,100,5.44,GA,1607898649,Southern
